lon,lat,name
146.7533,-42.0197,Barren Tier
148.3036,-41.8739,Bicheno (Council Depot)
148.2833,-41.8667,Bicheno (The Homestead)
147.0061,-42.3883,Bothwell (Franklin Street)
147.4333,-40.9667,Bridport Development
147.3917,-41.0067,Bridport Post Office
147.3869,-41.0025,Bridport (Sea View Villas)
146.4931,-42.1419,Bronte Heights
147.3611,-43.0903,Bull Bay (Lauriston)
145.9149,-41.05,Burnie Ntc Aws
145.9431,-41.0661,Burnie (Round Hill)
146.8983,-42.7097,Bushy Park (Bushy Park Estates)
146.2758,-42.2753,Butlers Gorge
147.4833,-42.8333,Cambridge Aerodrome
147.4258,-42.6867,Campania (Kincora)
147.4833,-41.9333,Campbell Town
147.4928,-41.9306,Campbell Town Post Office
147.1444,-43.4886,Cape Bruny (Cape Bruny)
147.1453,-43.4892,Cape Bruny Lighthouse
144.6922,-40.6764,Cape Grim
144.69,-40.6828,Cape Grim Baps (Comparison)
145.17,-42.1986,Cape Sorell
147.2667,-42.8,Claremont High School
145.9358,-41.5836,Cradle Mountain Airstrip
145.9444,-41.6383,Cradle Valley (Waldheim)
147.0794,-41.7256,Cressy Research Station
147.0811,-41.7219,Cressy Research Station (Main Office)
143.8486,-39.9322,Currie Post Office
147.3153,-39.4764,Deal Island
146.65,-41.5333,Deloraine East
146.6333,-41.5167,Deloraine (Goderick)
147.3567,-43.0639,Dennes Point
146.3667,-41.1833,Devonport
146.4289,-41.1701,Devonport Airport
146.3817,-41.18,Devonport East
147.0075,-43.3167,Dover
147.7894,-42.9017,Dunalley (Stroud Point)
148.3467,-40.9933,Eddystone Point Comparison
145.7725,-41.0828,Elliott Research Station
146.1089,-41.4506,Erriba (Cradle Mountain Road)
147.9664,-41.6428,Fingal (Legge Street)
148.0024,-40.0911,Flinders Island Airport
146.265,-41.2039,Forthside Research Station
148.2794,-41.9953,Friendly Beaches
146.9172,-43.1639,Geeveston (Cemetery Road)
146.9197,-43.1589,Geeveston (Fourfoot)
146.8333,-41.1167,George Town
147.0771,-42.983000000000004,Grove (Comparison)
147.0742,-42.9858,Grove (Research Station)
145.9833,-41.3,Gunns Plains
146.7683,-43.2006,Hartz Mountain (Keoghs Pimple)
146.8744,-43.4133,Hastings Chalet
145.7197,-41.5722,Hellyer Mine Office
147.5033,-42.8339,Hobart Airport
147.3278,-42.8897,Hobart (Ellerslie Road)
146.9841,-39.2225,Hogan Island
147.0522,-43.0303,Huonville North
143.8829,-39.8801,King Island Airport
147.3167,-42.9667,Kingston
148.2372,-40.2028,Lady Barron Aerodrome
146.1833,-41.4167,Lake Barrington
147.7933,-42.0097,Lake Leake (Chalet)
147.7975,-42.0067,Lake Leake (Elizabeth River)
146.2167,-42.1,Lake St Clair (Hec)
146.1772,-42.1178,Lake St Clair National Park
148.3467,-40.9928,Larapuna (Eddystone Point)
147.2144,-41.5492,Launceston Airport
147.2033,-41.5397,Launceston Airport Comparison
147.1275,-41.4264,Launceston (City)
147.1667,-41.45,Launceston (Elphin)
147.15,-41.4667,Launceston (Mount Pleasant)
147.15,-41.45,Launceston (Radio Station 7Ex)
147.1222,-41.4194,Launceston (Ti Tree Bend)
146.5083,-42.3808,Liapootah Power Station
146.6694,-41.8997,Liawenee
146.6672,-41.8983,Liawenee Comparison
147.2,-41.3167,Lilydale (Hollybank)
146.7874,-41.0547,Low Head
146.7883,-41.0567,Low Head (Comparison)
145.5025,-42.9831,Low Rocky Point
145.1517,-41.1492,Luncheon Hill (Forestry)
146.2711,-43.6578,Maatsuyker Island Lighthouse
148.0179,-42.6621,Maria Island (Point Lesueur)
144.7094,-40.9089,Marrawah
144.7,-40.9333,Marrawah (Greene)
146.5972,-42.7636,Maydena
146.6239,-42.7567,Maydena Post Office
147.2278,-42.4406,Melton Mowbray (Lovely Banks)
147.1981,-42.4928,Melton Mowbray (North Stockman)
146.9056,-42.7889,Moogara (Uxbridge Back Road)
147.4167,-41.4,Mount Barrow
145.5417,-41.8444,Mount Read
147.2358,-42.895,Mount Wellington
147.2464,-42.9156,Mount Wellington (The Springs)
147.0833,-42.7833,New Norfolk
145.5867,-41.905,Newton Creek Hec
147.3711,-42.3006,Oatlands Post Office
147.8753,-42.5519,Orford (Aubin Court)
146.7106,-42.4842,Ouse Fire Station
146.9886,-41.79,Palmerston
147.8333,-43.1639,Port Arthur (Palmers Lookout)
146.1597,-43.4297,Port Davey (Melaleuca)
147.2831,-41.6839,Powranna (Tasmania Feedlot)
145.5517,-41.0867,Preolenna
145.5447,-42.0967,Queenstown (7Xs)
145.5681,-42.0661,Queenstown (Copper Mine)
146.3467,-41.2083,Quoiba
144.7489,-40.9272,Redpa (Greenes Road)
147.3167,-42.8333,Risdon
145.5381,-41.7772,Rosebery (Hec Substation)
145.5244,-41.7903,Rosebery Station
147.75,-41.6667,Rossarden (Aberfoyle)
147.33,-42.0283,Ross (Ellinthorp)
147.4953,-42.025,Ross (The Boulevards)
145.2083,-41.4892,Savage River Mine
148.2644,-41.4639,Scamander
147.5156,-41.1608,Scottsdale (Forestry)
147.5167,-41.15,Scottsdale (Kraft Foods)
147.4883,-41.1708,Scottsdale (West Minstone Road)
146.2722,-43.0425,Scotts Peak Dam
146.75,-42.05,Shannon Hec
146.3278,-41.3831,Sheffield
146.3219,-41.3886,Sheffield School Farm
145.0847,-40.8347,Smithton Aerodrome
145.1125,-40.8492,Smithton (Grant Street)
147.9308,-42.5464,Spring Bay Ntc Aws
145.2944,-40.7642,Stanley Post Office
148.2792,-41.3381,St Helens Aerodrome
148.2489,-41.3225,St Helens Post Office
147.7292,-41.635,Storys Creek (Storys Creek Road)
145.2908,-42.155,Strahan Aerodrome
145.3028,-42.1514,Strahan (Lodge)
145.3267,-42.1558,Strahan (Vivian Street)
145.9833,-42.7333,Strathgordon (The Knob)
146.0461,-42.7681,Strathgordon Village
148.125,-40.7292,Swan Island
148.1253,-40.7314,Swan Island Lighthouse
148.0736,-42.1381,Swansea (Francis Street)
148.0731,-42.1233,Swansea (Maria Street)
148.0731,-42.1236,Swansea Post Office
146.4486,-42.3003,Tarraleah Village
148.0025,-43.2397,Tasman Island
148.0,-43.25,Tasman Island Lighthouse
145.7061,-41.2314,Tewkesbury
147.4612,-42.4543,Tunnack Fire Station
145.5258,-41.4372,Waratah (Mount Road)
146.704,-43.0609,Warra
148.0167,-40.1214,Whitemark Post Office
146.8,-42.0333,Wihareja
145.7311,-40.9964,Wynyard Airport
145.7292,-40.9942,Wynyard (Jackson Street)
145.3333,-41.8833,Zeehan Post Office
145.3358,-41.8822,Zeehan (West Coast Pioneers Museum)
147.1019,-43.2256,Abels Bay (Sandreef Road)
146.3339,-41.2478,Aberdeen (Melrose Road)
146.3333,-42.7167,Adamsfield
147.35,-43.4,Adventure Bay
147.3436,-43.3689,Adventure Bay (Bligh Museum)
147.3147,-43.3531,Adventure Bay (Forestry)
147.3208,-43.3292,Adventure Bay (Fuel Depot)
147.3333,-43.3667,Adventure Bay (Supermarket)
147.2014,-42.9997,Allens Rivulet (Blue Gum Rise)
146.6833,-41.8167,Allenvale
147.2467,-43.3181,Alonnah Area School
147.5,-42.35,Andover
148.2592,-41.0458,Ansons Bay
148.1839,-41.9525,Apslawn
147.1347,-42.4158,Apsley (Parki)
144.6667,-41.05,Arthur River
144.6653,-41.0558,Arthur River (Gardiner Street)
144.9664,-41.0906,Arthur River Park
146.9333,-42.0333,Arthurs Lake (Dam Site)
146.9167,-41.9667,Arthurs Lake No 2
146.9667,-41.95,Arthurs Lake (North End)
146.8603,-41.9897,Arthurs Lake Pump Station
146.9667,-41.9833,Arthurs Lake (Upper)
146.7914,-43.1406,Arve Valley (Arve Road)
146.7767,-42.4117,Ashton (Ouse River)
147.2519,-42.7808,Austins Ferry
147.6167,-41.8,Avoca (Bonneys Plain)
147.7225,-41.7792,Avoca (Railway House)
147.1167,-41.0333,Back Creek
148.19,-40.2319,Badger Corner
147.2,-42.6,Bagdad
147.2233,-42.6319,Bagdad Post Office
144.91,-41.2636,Balfour
147.3667,-43.1167,Barnes Bay
146.2797,-41.3356,Barrington Post Office
147.245,-41.8617,Barton (Isis River)
146.8,-42.3,Bashan
146.8156,-41.2025,Beaconsfield (Mine & Heritage Centre)
148.2744,-41.4136,Beaumaris (Skyline Drive)
147.9858,-41.5168,Beauty Flat Road
146.8217,-41.165,Beauty Point (Flinders Street)
146.8461,-41.1333,Bell Bay (Temco)
147.3783,-42.8817,Bellerive (Fort Street)
147.3711,-42.8731,Bellerive (York Street)
147.4033,-42.5572,Below Craigbourne Dam (Coal River)
143.9603,-39.8964,Ben Hilton
147.6658,-41.5353,Ben Lomond Alpine Village
147.23,-42.8167,Berriedale
147.2558,-42.8119,Berriedale (Moorilla Estate)
146.4,-41.4667,Beulah Lower
148.2522,-41.8114,Bicheno (Denison River)
148.2167,-41.8667,Bicheno (Glenalbyn)
148.2,-41.8667,Bicheno (Rosedale)
145.9,-42.1333,Bills Creek
147.5708,-42.305,Birralee Creek
147.3275,-43.0156,Blackmans Bay Treatment Plant
145.3,-40.9,Black River
146.8992,-41.7511,Blackwood Creek (Kopanica)
146.8822,-41.7508,Blackwood Creek (Rare Plant Nursery)
147.6,-41.45,Blessington Upper
147.9306,-40.0289,Blue Rocks (The Ranch)
148.0,-41.2,Blue Tier Mount (Intake)
148.0833,-41.2,Blue Tier Plateau (Poimena)
145.5983,-40.9347,Boat Harbour
143.9628,-39.6847,Bob Lagoon
145.9,-43.25,Bond Bay
147.3303,-42.97,Bonnet Hill
147.8817,-40.8828,Boobyalla
146.8667,-42.4,Bothwell (Clairveaux)
146.9608,-42.3164,Bothwell (Cluny)
147.0036,-42.3811,Bothwell (Clyde River)
147.0,-42.3667,Bothwell (Grantham)
147.0886,-42.2756,Bothwell (Largo)
147.0667,-42.3667,Bothwell (Logan)
147.0,-42.3833,Bothwell (Ratho)
146.9667,-42.2689,Bothwell (Weasel Plains)
146.9275,-41.6472,Bracknell (Elizabeth Street)
146.6725,-41.8158,Brandum Bay
147.7333,-41.1667,Branxholm (Forestry)
147.7261,-41.1856,Branxholm (Levene)
147.7417,-41.1672,Branxholm (Rowlings Road)
147.19,-41.5103,Breadalbane (Marchington)
148.0667,-41.5833,Break O Day River (Killymoon)
147.8289,-42.8122,Bream Creek (Stroud)
146.7,-41.7833,Breona
146.7131,-41.7778,Breona (Haulage Road)
144.0,-39.8,Breton
147.2,-41.2,Bridestowe
147.3419,-41.1297,Bridestowe Lavender Estate
147.5,-41.2,Brid Farm
147.2389,-42.7417,Bridgewater (Treatment Plant)
147.4375,-41.0072,Bridport (Barnbougle Dunes)
147.3,-42.7,Brighton
147.2617,-42.6933,Brighton
147.1,-42.7,Broadmarsh (Corleen)
147.1,-42.65,Broadmarsh (Stoneyhurst)
146.35,-42.0167,Bronte (Gowan Brae)
144.05,-39.9,Brooklyn
147.7,-42.6,Buckland
147.7908,-42.5847,Buckland (Brockley)
147.7831,-42.5794,Buckland (Brockley Road)
147.7214,-42.6067,Buckland (Kent Street)
147.6706,-42.6114,Buckland (Pulchella)
145.595,-41.6267,Bulgobac
145.9,-41.05,Burnie (No 1)
145.8814,-41.05,Burnie (Park Grove)
147.4917,-41.4761,Burns Creek (Janefield)
147.5,-42.8,Cambridge (Braeside)
147.4167,-42.8,Cambridge (Craigow)
147.5167,-42.8333,Cambridge (Milford)
147.4344,-42.8158,Cambridge (The Cottage)
147.4325,-42.6633,Campania (The Pines)
147.4667,-41.95,Campbell Town (Balvaird)
147.4931,-41.9347,Campbell Town (Elizabeth R)
147.3014,-41.8628,Campbell Town (Greenhill)
147.5167,-41.9667,Campbell Town (Quorn Hall)
147.4494,-41.8658,Campbell Town (Wanstead Park)
148.0061,-40.3803,Cape Barren Island (Long Beach)
144.6894,-40.6831,Cape Grim Comparison
144.7181,-40.6842,Cape Grim (Woolnorth)
143.95,-39.5833,Cape Wickham
145.8167,-42.1333,Cardigan Flats
148.05,-40.2,Carina Park
147.6667,-42.8833,Carlton (Carlton Bluff)
147.65,-42.8833,Carlton River
146.9933,-41.5433,Carrick (Oaks Road)
147.0,-41.5,Carrick (Parkwater)
147.8,-41.2,Cascade Upper
146.1,-41.3,Castra Central
146.13,-41.335,Castra Upper
146.8917,-43.5578,Catamaran
146.4592,-41.6142,Caveside
146.4431,-41.6178,Caveside (Parmeener)
148.2842,-41.6711,Chain Of Lagoons
147.1353,-43.1617,Chappys Hut
145.55,-41.7,Chester
145.0167,-40.9,Christmas Hills
144.9475,-40.965,Christmas Hills (No 2)
146.5,-42.0,Circle
144.1111,-40.0092,City Of Melbourne Bay
147.2378,-42.7744,Claremont (Gillies Road)
147.2336,-42.7889,Claremont West
146.9,-42.65,Clarendon
148.1239,-40.5117,Clarke Island
146.2628,-41.4453,Claude Road (Cammelot)
146.7,-42.4,Cleveland
147.5081,-42.9683,Clifton Beach (Clifton Beach Road)
146.8469,-41.5944,Cluan
146.9,-43.6,Cockle Creek
147.4706,-42.5272,Colebrook (Daniels Road)
147.3567,-42.5206,Colebrook (The Meadows)
148.2967,-42.1267,Coles Bay (Freycinet)
145.9258,-42.1633,Collingwood River
147.2,-42.85,Collinsvale
147.1931,-42.8367,Collinsvale
147.1667,-42.85,Collinsvale (Langford)
145.3,-41.9,Comstock
147.4333,-41.8333,Conara Junction
147.0922,-41.8142,Connorville (Lake River)
147.8061,-42.8236,Copping
147.7939,-42.8242,Copping (Yaxley Estate)
145.0783,-41.6508,Corinna
148.1414,-41.5633,Cornwall
147.2326,-41.4889,Corra Linn (North Esk River)
147.0617,-42.9458,Crabtree (Crabtree Road)
147.0444,-42.9278,Crabtree (Stoney Creek Farm)
145.9311,-41.5958,Cradle Mountain Visitors Centre
145.95,-41.6367,Cradle Valley
147.0481,-43.1319,Cradoc (Balfes Hill)
148.0747,-42.0117,Cranbrook (Cranbrook House)
148.075,-41.9303,Cranbrook (Waters Meeting)
147.1833,-41.7333,Cressy (Coburg)
147.1008,-41.6606,Cressy House
147.0833,-41.7,Cressy Post Office
145.6,-42.2,Crotty
143.885,-39.9208,Currie (Fraser Road)
143.8524,-39.9282,Currie (Main Street)
143.8667,-39.9333,Currie North
146.1667,-42.1,Cuvier River
147.07,-43.1522,Cygnet (Cradoc Road)
147.0625,-43.1547,Cygnet (Dances Road)
147.0833,-43.1333,Cygnet (Slab Road)
147.0539,-43.1547,Cygnet (Synotts Road)
148.05,-40.0333,Dallen
145.95,-43.1417,Davey River
147.4508,-41.575,Deddington (Marathon)
147.4089,-41.6039,Deddington (Nile River)
146.65,-42.3,Dee
146.7158,-41.5211,Deloraine (Athol)
146.7,-41.5167,Deloraine (Bowerbank)
146.6481,-41.5244,Deloraine (Kanangra)
146.6583,-41.5267,Deloraine Railway Bridge (Meander River)
146.6703,-41.4656,Deloraine (Reedy Marsh)
146.8333,-43.0167,Denison
146.8006,-42.9839,Denison River
146.7667,-42.9667,Denison Valley Saw Mill
147.8006,-41.1508,Derby (Church Street)
147.8,-41.145,Derby Post Office
146.2167,-42.1333,Derwent Bridge
146.2156,-42.1289,Derwent Bridge
145.4833,-40.9,Detention River
146.9294,-41.2339,Deviot Jetty
146.3617,-41.1667,Devonport Harbour Master
147.5,-41.3167,Diddleum Plains
147.495,-41.2994,Diddleum (Sowters Road)
147.6211,-42.8514,Dodges Ferry
147.2,-42.1,Dogs Head (Lake Sorell)
148.2525,-41.7822,Douglas River
147.15,-42.7167,Dromedary
147.8,-42.9,Dunalley
147.8667,-42.8975,Dunalley (Bangor)
145.4333,-41.8833,Dundas
147.7,-41.2833,Dunne Creek
146.535,-41.4978,Dunorlan (Sharmans Road)
147.2108,-42.5767,Dysart (Goodwood Park)
147.9117,-43.0153,Eaglehawk Neck (Jetty Road)
147.9333,-43.0333,Eaglehawk Neck (Penzance)
148.2,-40.1833,Earlwood
147.65,-41.8167,Eastbourne
146.5481,-41.2708,East Sassafras (Elphin Grove)
145.0783,-40.9911,Edith Creek
145.0892,-40.9811,Edith Creek (Birthday Creek)
143.9975,-39.6639,Egg Lagoon
144.8833,-40.9667,Eighteen Mile Camp
147.1,-42.6,Elderslie
147.1028,-42.6225,Elderslie South  (Staples Sugarloaf)
146.7167,-42.6189,Ellendale Post Office
147.9167,-40.0167,Emita
147.8953,-40.0022,Emita (Port Davies Road)
147.3208,-41.7244,Epping Forest (Forton)
146.1228,-41.4406,Erriba (Jubb Road)
146.3,-41.2308,Eugenana (Tasmanian Arboretum)
147.2444,-41.5664,Evandale (Cambock Lane)
147.2333,-41.6,Evandale (Pleasant Banks)
147.3,-41.5,Evandale (Ridgeside)
148.2642,-41.5125,Falmouth (Glencoe)
146.7619,-42.6511,Fentonbury (Hamlet Downs)
144.0333,-40.0,Fernlea
147.2833,-42.9,Ferntree (Cloverhaven)
147.2517,-42.9272,Fern Tree (Grays Road)
147.2667,-42.9333,Ferntree (Huon Road)
147.3,-41.1,Ferny Hill (Glen Fern)
148.0064,-41.4608,Fingal (Evercreech)
147.9637,-41.6379,Fingal (South Esk River)
147.9333,-41.6,Fingal (Tower Hill No2)
147.95,-41.5167,Fingal (Tower Hill No3)
147.9333,-41.5667,Fingal (Tower Hill No4)
146.7,-42.8,Fitzgerald
146.6333,-42.75,Fitzgerald (Maydena)
145.7,-40.9667,Flowerdale
147.6778,-42.8158,Forcett (Inala)
147.6225,-42.8156,Forcett (Old Forcett Road)
147.6833,-41.0833,Forester
147.6667,-41.0667,Forester (Glennon)
145.25,-40.85,Forest (Van Diemans Land Company)
147.4133,-43.0431,Fort Direction
147.9617,-43.1456,Fortescue Bay
147.4256,-41.9311,Fosterville
146.7378,-41.3203,Frankford (Rossville)
147.0061,-43.0906,Franklin
146.9886,-43.1219,Franklin (South)
146.9833,-43.1,Franklin West
147.1539,-43.1753,Gardners Bay (Woodbridge Hill Road)
146.1,-41.2,Gawler West
146.9333,-43.1667,Geeveston Police Station
146.9053,-43.2164,Geeveston (Riawunna)
147.3603,-42.8425,Geilston Bay (Lindhill Avenue)
146.8275,-41.1208,George Town (South Street)
148.1969,-41.5308,German Town
147.7833,-39.9,Gingie
148.0086,-40.9589,Gladstone (Old Post Office)
147.0089,-43.1481,Glaziers Bay
147.4,-42.0,Glen Connell
146.9892,-42.8017,Glenfern (Homebush)
146.8169,-41.3753,Glengarry (Ginns Road)
146.8964,-41.3428,Glengarry (Hundred Acre Wood)
146.9483,-41.345,Glengarry (No3)
146.8667,-41.3333,Glengarry (Post Office No2)
146.8644,-41.3436,Glengarry (Roseleigh)
146.9,-41.3,Glengarry (West Tamar)
146.95,-43.1667,Glen Huon
147.2,-42.8333,Glen Lusk
147.1989,-42.8106,Glen Lusk (Charton Hill)
147.2547,-42.8494,Glenorchy (Glenorchy Reservoir)
147.2667,-42.8442,Glenorchy (Murrayfield)
147.2833,-42.8167,Glenorchy No2
143.845,-39.8825,Glenvale
146.7,-41.6333,Golden Valley
146.7,-41.6308,Golden Valley (Brodies Road)
147.8,-40.25,Goose Island
147.25,-43.25,Gordon
145.6833,-42.5667,Gordon River (Sir John Falls)
145.5986,-42.0747,Gormanston (Gould Street)
148.1133,-41.2731,Goshen
148.1,-41.2667,Goshen (Post Office)
148.0569,-41.2439,Goulds Country
148.05,-41.25,Goulds Country Post Office
146.2147,-41.4706,Gowrie Park
146.2269,-41.4731,Gowrie Park (O'Neills Road)
147.1833,-42.7667,Granton (Altamont)
145.0511,-41.8028,Granville Harbour
144.0581,-40.0511,Grassy
144.0525,-40.0491,Grassy (Currie Rd)
144.0622,-40.0486,Grassy (Scheelite Mine)
146.9,-41.2,Gravelly Beach
148.2319,-41.6358,Gray (Blueberry Cottage)
148.2208,-41.6231,Gray (Craigie-Lea)
148.225,-41.6279,Gray (Dalmayne Rd)
148.2214,-41.6292,Gray (Haven Of Hope)
147.3664,-43.2119,Great Bay (Cheverton)
147.3783,-43.2147,Great Bay (Robeville)
146.8,-41.8,Great Lake (Cider Park)
146.8283,-41.8386,Great Lake (Poatina Intake)
148.0667,-41.1333,Great Musselroe River
146.9333,-42.6167,Gretna (Allan Vale)
147.01,-41.3592,Grindelwald
147.9967,-42.4425,Grindstone Point
145.6967,-41.4333,Guildford Junction
147.0667,-41.5167,Hadspen
147.0511,-41.51,Hadspen
146.9011,-41.5514,Hagley (Fairbank)
146.8667,-41.5333,Hagley (Farm School)
146.8328,-42.5455,Hamilton (Clyde River)
146.8611,-42.5664,Hamilton (Kia Ora)
146.8347,-42.5572,Hamilton (Uralla)
145.7603,-41.2803,Hampshire (Guildford Road)
145.7731,-41.2467,Hampshire (Neena Road)
147.6167,-41.8167,Hanleth
143.925,-39.9183,Harwell
146.3167,-41.1833,Hawthorn (Don)
146.9867,-42.74,Hayes (Plenty View)
146.8753,-42.2558,Hermitage (Shannon River)
147.75,-43.2,Highcroft
144.0667,-39.95,Hillwood
146.9953,-41.2383,Hillwood (Hillwoodville)
147.5014,-42.8375,Hobart Airport (Office)
147.3322,-42.8667,Hobart Botanical Gardens
147.3333,-42.8833,Hobart (Elizabeth Street School)
147.3333,-42.9,Hobart (Murray Street)
147.2686,-42.9,Hobart (Strickland Reserve)
147.2753,-42.9125,Hobart (Turnip Fields)
147.2931,-42.9078,Hobart (Waterworks Reserve)
146.7833,-41.2833,Holwell
147.3,-43.0333,Howden (Waringa)
146.8,-41.9,Howells Neck
147.4,-42.8833,Howrah
147.2358,-41.7292,Hummocky Hills
144.75,-40.6,Hunter Island
144.7469,-40.5278,Hunter Island (No2)
147.0833,-43.1,Huon
147.15,-43.3,Huon Island
147.05,-43.0167,Huonville East
147.0544,-43.0286,Huonville (Tutton Avenue)
147.0333,-43.0,Huonville West
148.0981,-40.9183,Icena
146.15,-42.0333,Ida River
147.1725,-42.1456,Interlaken
147.1667,-42.15,Interlaken
147.1192,-42.1436,Interlaken Estate
147.15,-41.4,Invermay
145.145,-40.9136,Irishtown
148.31,-41.5822,Ironhouse Point
148.3117,-41.5742,Ironhouse Point (Holiday Village)
146.6764,-41.6794,Jackeys Marsh
147.3,-42.4,Jericho
147.3042,-42.3958,Jericho (Bowsden)
147.2864,-42.375,Jericho (Northumbria)
147.4808,-41.1328,Jetsonville ( Muskfield )
146.9333,-42.9833,Judbury
146.9258,-43.0019,Judbury (Helm)
146.928,-43.0,Judbury (Huon River)
147.8214,-42.0272,Kalangadoo
147.1597,-43.0244,Kaoota  (Heavens Echo)
147.1667,-41.2833,Karoola
147.1225,-41.2292,Karoola (Lower Turners Marsh)
145.6461,-41.1036,Kellatier
147.8086,-42.7856,Kellevie
146.7333,-41.0833,Kelso
147.19,-42.5242,Kempton (Oakmore)
147.1983,-43.1275,Kettering (Dragonfly Farm)
147.2303,-43.1331,Kettering (Groombridges Road)
147.22,-43.1247,Kettering (Saddle Road)
147.8358,-39.8369,Killiecrankie
147.3225,-43.1061,Killora (Grasmere)
146.4667,-41.4167,Kimberley (Armistead)
146.4953,-41.3972,Kimberley (Mersey River)
146.4975,-41.3969,Kimberley (Siding)
146.1925,-41.245,Kindred (Clerke Plains Road)
146.2333,-41.2167,Kindred (Invergordon)
147.3036,-42.9781,Kingston (75 Channel Highway)
147.2672,-42.9714,Kingston (Cades Drive)
147.3333,-42.9667,Kingston (Freemans Street)
147.295,-42.9742,Kingston (Greenhill Drive)
147.2636,-42.9617,Kingston (Summerleas)
147.2667,-42.95,Kingston (Summerleas Road)
144.0333,-39.9,Koomela
147.7922,-43.0833,Koonya Heights
145.3,-42.0,Koyule
147.05,-42.8333,Lachlan
147.0,-42.9,Lachlan (Hillcote)
147.0,-42.85,Lachlan (Mossbeds)
147.0294,-42.8456,Lachlan (Williams Road)
148.15,-40.0833,Lackrana (Burra Downs)
148.1853,-40.1558,Lackrana (Fern Hill)
148.2469,-40.2106,Lady Barron (Franklin Parade)
146.5728,-41.8436,Lake Augusta
145.6733,-42.0983,Lake Burbury Park
147.1075,-42.2139,Lake Crescent (Serat)
146.6383,-42.2167,Lake Echo Dam
146.6833,-42.1333,Lake Echo (North End)
146.62,-42.2539,Lake Echo Power Station
146.6233,-42.6792,Lake Fenton
143.9686,-39.6136,Lake Flannigan
146.0719,-41.4722,Lake Gairdner Dam
147.7961,-42.0069,Lake Leake (Fws)
146.3792,-41.6814,Lake Mackenzie Dam
145.5725,-41.9933,Lake Margaret Dam
145.5436,-42.0042,Lake Margaret Power Station
146.2,-42.1,Lake St Clair Control Dam
145.5833,-40.9667,Lapoinya (Myalla)
146.3975,-41.2514,Latrobe (Coal Road)
147.5,-42.9167,Lauderdale (Yarrimbah)
147.2083,-41.4317,Launceston (Distillery Creek)
147.1667,-41.4667,Launceston (East)
147.1644,-41.4664,Launceston (Kings Meadows)
147.1114,-41.4247,Launceston (Trevallyn)
147.2233,-41.1853,Lebrina
147.0,-41.1,Lefroy
147.0003,-41.1003,Lefroy (Lefroy Road)
147.0431,-41.3667,Legana (Una Villas)
146.62,-41.54,Lemana (Woodlands)
147.295,-42.8683,Lenah Valley (Augusta Road)
147.2433,-42.9642,Leslie Vale
147.5681,-42.5419,Levendale
147.5667,-42.5333,Levendale No 2
147.6086,-42.8108,Lewisham (Forcett House)
147.9551,-41.82,Lewis Hill (St Pauls River)
146.63,-41.9008,Liawenee Hec
146.25,-41.55,Liena
146.2239,-41.5544,Liena (Old School House)
146.8467,-41.6847,Liffey
146.8319,-41.6797,Liffey (Gulf Road)
145.2,-40.9667,Lileah (Braemar)
147.2169,-41.25,Lilydale Post Office
147.2064,-41.2336,Lilydale (Torwood)
147.3667,-42.85,Lindisfarne
147.3642,-42.8547,Lindisfarne (Gordons Hill)
148.0667,-41.0667,Little Musselroe
148.0006,-42.2889,Little Swanport (Lisdillon)
148.0006,-42.2886,Little Swanport (Lisdillon Farm)
147.9211,-42.3164,Little Swanport (Wineglass Cottage)
147.5667,-41.8167,Llewellyn
147.5664,-41.8172,Llewellyn (South Esk River)
148.1,-40.2,Locotta
148.1775,-41.4094,Loila Pinnacle
147.12,-41.5922,Longford (Denton Close)
147.15,-42.9833,Longley (Lower)
147.2039,-42.9622,Longley (River Bend Road)
147.1692,-42.9742,Longley (Telopea)
146.8,-42.95,Lonnavale
145.9342,-41.3961,Loongana (Serendipity)
148.3333,-41.2833,Lords Point
146.1364,-41.5406,Lorinna
146.0,-41.3333,Lorinna (Black Bluff Mine)
146.0,-41.3,Lowana
147.1472,-42.9664,Lower Longley (Lomatia Vale)
147.1906,-42.345,Lower Marshes (Jordan River)
147.1986,-42.3097,Lower Marshes (Merrivale)
147.1994,-42.3292,Lower Marshes (Salisbury)
145.8619,-41.1164,Lower Ridgley (Mooreville Road)
147.0342,-42.9725,Lucaston (Bakers Creek Road)
147.9333,-39.9667,Lughrata
145.3844,-41.4675,Luina
147.235,-43.3575,Lunawanna
147.3069,-42.8386,Lutana (Bowen Road)
146.8,-41.1,Lyetta (Clarence Point)
147.0667,-43.2,Lymington
147.0658,-43.1983,Lymington (Fattys Lane)
146.2744,-43.6539,Maatsuyker Island Garden
146.9167,-42.7167,Macquarie Plains
145.45,-41.5,Magnet
147.05,-42.74,Magra (Black Hills Road)
147.1997,-42.6564,Mangalore (Mangalore Farm)
147.2467,-42.6425,Mangalore (Milford)
147.8667,-41.6,Mangana
147.255,-43.0239,Margate (Sunnyside)
148.1,-42.6,Maria Island (Chinamans Bay)
148.0636,-42.5844,Maria Island (Darlington)
144.7,-41.1667,Marrawah (Couta Rocks)
144.7,-40.95,Marrawah (Glendonald)
147.8919,-41.4703,Mathinna (Fingal Road)
147.8886,-41.4656,Mathinna (South Esk River)
147.1236,-42.5272,Mauriceton (Jordan River)
145.3667,-40.95,Mawbanna
145.3833,-41.0333,Mawbanna (Forres)
145.3742,-40.9733,Mawbanna (Harby Hills)
145.3492,-40.905,Mawbanna (Mawbanna Road)
146.3,-41.5667,Mayberry
146.8439,-42.6125,Meadowbank Lake Dam
146.6144,-41.6489,Meander
146.6154,-41.6494,Meander (Meander River)
146.3333,-41.2167,Melrose
146.3,-41.25,Melrose (Quarries)
147.1667,-42.4833,Melton Mowbray (Mount Vernon)
147.2,-42.4833,Melton Mowbray (Tranquility)
148.1822,-40.0194,Memana (Babel Farm)
146.2167,-41.7,Mersey Valley (Forestry No 2)
146.2167,-41.6,Mersey Valley No 1
147.2547,-43.2319,Middleton Post Office
146.6994,-41.9897,Miena (Berry Drive)
146.7228,-41.9822,Miena Dam
146.7,-42.0,Miena (Stone Hut)
148.1178,-40.1883,Mileara Park
143.8892,-39.9872,Millers Bay
146.0747,-41.4842,Moina
146.3992,-41.5553,Mole Creek
146.3333,-41.5167,Mole Creek (Roland View)
147.1144,-42.8069,Molesworth (Glen Dhu Road)
146.6,-41.45,Moltema
146.5167,-41.45,Moltema (Craythorne)
148.0014,-41.5544,Monameta  (Mathinna Rd)
144.9586,-40.7769,Montagu (Montagu Road)
144.9,-40.9667,Montagu Swamp (16 Mile Camp)
146.5667,-41.6,Montana
146.6,-41.5833,Montana (Huntley)
147.3,-42.85,Moonah
144.0333,-40.0333,Moorden
147.8617,-41.1256,Moorina
147.9092,-41.1328,Moorina (Frome Dam)
145.6225,-40.98,Moorleah
145.6114,-40.9936,Moorleah (Preolenna Road)
147.3903,-41.9114,Morningside (Macquarie River)
147.5953,-42.0886,Moulton (Glen Morriston Rivulet)
147.1378,-42.9372,Mountain River
147.1333,-42.95,Mountain River
147.2525,-41.2622,Mount Arthur (Mountain Road)
147.29,-41.2767,Mount Arthur Summit
147.4167,-41.3833,Mount Barrow (Hec No 1)
147.4242,-41.3917,Mount Barrow (South Barrow)
147.95,-41.0,Mount Cameron South
146.25,-42.15,Mount Charles
147.1294,-42.7019,Mount Dromedary
147.1017,-41.4725,Mount Leslie
146.9449,-42.8521,Mount Lloyd
146.9461,-42.8422,Mount Lloyd (San Irisido)
146.5825,-42.6817,Mount Mawson
146.6,-42.6881,Mount Mawson (Government Huts)
147.5805,-42.163000000000004,Mount Morriston (Macquarie River)
147.2,-42.75,Mount Nassau
147.3333,-42.9167,Mount Nelson
147.3301,-42.9232,Mount Nelson (Rialannah Road)
147.6,-42.3,Mount Pleasant
145.55,-41.9,Mount Read (Mount Lyell M.&R.)
147.4386,-42.8569,Mount Rumney (Mount Rumney Road)
147.4631,-42.3696,Mount Seymour
147.4333,-42.4,Mount Seymour (Overton)
147.8036,-41.3456,Mount Victoria (Una Plain)
146.3067,-42.8208,Mount Wedge
148.0167,-41.3525,Mount Young (Forestry)
147.1347,-41.3994,Mowbray Golf Course
147.4333,-41.45,Musselboro (Applico)
147.4386,-41.4864,Musselboro (Elverton)
147.35,-41.2667,Myrtle Bank (Lanoma)
147.3667,-41.1667,Nabowla
147.3686,-41.1719,Nabowla (Charis)
147.3617,-41.1517,Nabowla (Dunbarton)
144.0998,-39.9078,Naracoopa
146.1,-42.0167,Narcissus River
146.75,-42.7,National Park
146.7161,-42.6919,National Park (Forestry)
146.7122,-42.6894,National Park Parks & Wildlife Depot
145.9167,-41.2,Natone
146.5667,-41.55,Needles
147.1167,-41.3833,Newnham (Rocherlea)
147.0664,-42.7764,New Norfolk Caravan Park
147.0819,-42.7786,New Norfolk (Santanah)
147.0286,-42.7775,New Norfolk (West)
147.8072,-41.2658,New River (New River Road)
147.2128,-43.0336,Nierinna (Cuthberts Road)
147.3294,-41.6456,Nile (Cox Street)
146.5167,-41.2333,Northdown (Boisdale)
146.4817,-41.1839,Northdown (Hamley)
145.2167,-40.8333,North Forest
146.1069,-41.2281,North Motton (Leven Hill)
147.1839,-42.9275,North West Bay Weir
147.7442,-43.1086,Nubeena
147.7175,-43.0894,Nubeena (Lottah)
147.7617,-43.1367,Nubeena South
147.7344,-43.1261,Nubeena (White Beach Road)
143.8881,-39.9814,Nugara
147.75,-42.7167,Nugent
147.7525,-42.7153,Nugent (Twilight Valley)
147.2833,-41.4,Nunamara
147.2914,-41.4089,Nunamara (Hunting Ground Road)
147.3006,-41.3959,Nunamara Offtake (St Patricks River)
147.3203,-41.3847,Nunamara (St Patricks River)
146.9733,-41.5689,Oaks (Glenburn)
147.2333,-42.2833,Oatlands (Bow Hill)
147.3,-42.8,Old Beach (Compton)
145.6836,-41.0728,Oldina (Locketts Road)
147.4089,-42.2531,Old St Peters Pass
147.4056,-42.9978,Opossum Bay
147.8833,-42.55,Orford (Blue Waters Motel)
147.9,-42.5667,Orford Central
147.9333,-42.6333,Orford (Rheban)
147.9142,-42.5853,Orford South
147.55,-42.75,Orielton
147.5422,-42.7214,Orielton
147.5511,-42.7469,Orielton (East Orielton Road)
147.8244,-41.7197,Ormley
146.7475,-42.3367,Osterley
146.7114,-42.4814,Ouse (Millbrook)
147.2167,-43.1167,Oyster Cove
146.25,-41.2667,Paloona (Hec Pumping Station)
147.6094,-42.8689,Park Beach
146.6,-41.4,Parkham
146.5861,-41.3886,Parkham (Avenue Road)
146.65,-41.4333,Parkham East
145.6,-41.3,Parrawe
147.3,-41.3,Patersonia North
143.95,-40.0667,Pearshape
144.0231,-39.9397,Pegarah
144.0,-39.9667,Pegarah State School
145.1,-40.9167,Pelerine (Newington Park)
146.05,-41.1,Penguin
146.0617,-41.1344,Penguin (Ironcliffe Road)
146.0239,-41.1664,Penguin (Mount Gnomon)
146.7544,-42.1025,Penstock Lagoon (Pipeline)
147.1825,-41.5711,Perth (Forestry Nursery)
147.2,-41.55,Perth (Leighlands)
147.0,-43.2,Petcheys Bay
146.6636,-43.1867,Picton Valley (Spur 1 Road)
144.9317,-41.6608,Pieman Heads
147.35,-43.05,Piersons Point
145.5333,-42.3333,Pillinger
146.4833,-42.0833,Pine Tier
147.9353,-41.0825,Pioneer (Main Road)
147.1844,-41.075,Pipers Brook (Pipers Brook Road)
147.0967,-41.1131,Pipers River (Bay Of Fires)
147.1286,-41.0836,Pipers River (Yarrow Banks)
147.0,-42.75,Plenty (Kinvarra River)
146.9594,-41.7964,Poatina
147.0197,-41.8153,Poatina (Billopp)
146.9267,-41.8078,Poatina Information Centre
146.9167,-41.8167,Poatina Power Station
146.54,-41.1336,Point Sorrell
147.2667,-42.6667,Pontville (Shene)
147.85,-43.15,Port Arthur
147.8528,-43.1358,Port Arthur (Stewarts Bay)
147.1,-43.2,Port Cygnet
145.3836,-40.8528,Port Latta
146.6033,-41.1494,Port Sorell (Narawntapu National Park)
147.2833,-41.7,Powranna (Eskdale)
145.7,-41.15,Predlinna (Maweena)
147.7814,-43.055,Premaydena Hatchery
145.5453,-41.0953,Preolenna
146.0803,-41.2808,Preston
145.6667,-42.0833,Princess River
147.9492,-41.27,Pyengana (Forest Lodge Road)
147.9219,-41.2756,Pyengana (Sea View)
146.7278,-41.6706,Quamby Bluff
145.5456,-42.0961,Queenstown (South Queenstown)
145.5286,-42.0833,Queenstown (Upper Princess Creek)
145.6989,-41.6042,Que River
146.415,-41.3317,Railton (Cement Australia)
146.4164,-41.3528,Railton (Dowbiggin Street)
146.4225,-41.3469,Railton (Redwater Creek)
147.4667,-42.9167,Ralphs Bay
146.35,-42.6,Rasselas Valley
147.9397,-42.3619,Ravensdale
144.7325,-40.9744,Redpa (Linnanes Road)
145.3,-42.2,Regatta Point
147.2028,-41.5136,Relbia (Josef Chromy Wines)
145.1667,-41.9333,Remine (Trial Harbour)
145.4392,-41.7953,Renison Bell
147.1667,-41.15,Retreat (Pine View)
145.9997,-41.1964,Riana (Pine Road)
147.3961,-42.7631,Richmond (Brookbank)
147.4397,-42.7322,Richmond (Coal River)
147.5,-42.7,Richmond (Inverguharity)
147.4453,-42.7406,Richmond (Lowlands)
147.3817,-42.7578,Richmond (Strathayr)
145.8339,-41.1497,Ridgley
147.7353,-41.2439,Ringarooma (Charles Street)
147.3572,-42.8119,Risdon Vale (Poplar Road)
148.1,-42.1,Riversdale
147.05,-41.3833,Riverside North (Danbury Park)
144.9667,-40.7,Robbins Island
147.3833,-43.2167,Robeville
145.0333,-41.0333,Roger River Estate
145.0167,-41.05,Roger River (West)
147.435,-42.8911,Rokeby (Grange Road East)
147.4386,-42.8961,Rokeby (The Mall)
146.5,-42.1,Roscarbro
145.5333,-41.7667,Rosebery
145.5372,-41.7847,Rosebery (Gepp Street)
148.011,-41.8023,Rosemount Flat
147.6506,-41.4256,Roses Tier (Memory Road West)
147.25,-42.8333,Rosetta
146.9258,-41.4039,Rosevale
147.3667,-42.8667,Rosny
147.5,-42.05,Ross (Beaufront)
147.3,-42.0,Ross (Bendermeer)
147.4907,-42.0317,Ross (Macquarie River)
147.49,-42.0333,Ross (Macquarie River)
147.575,-42.1633,Ross (Mount Morriston)
147.3333,-42.0333,Ross (Plassy)
147.2772,-41.9736,Ross (Rose Villa)
147.7,-42.25,Ross (Tooms Lake)
147.1672,-42.3075,Rotherwood
146.9167,-41.1794,Rowella
147.6,-42.6667,Runnymede
147.5986,-42.6372,Runnymede (Whitemarsh)
148.0178,-40.8586,Rushy Lagoon (Cape Portland Road)
147.7239,-43.0294,Saltwater River
147.7242,-43.0189,Saltwater River (Convict Beach House)
147.7067,-42.9967,Saltwater River(Turners Point)
147.1797,-42.9964,Sandfly
147.4808,-43.0181,Sandford (Gellibrand Drive)
147.4667,-42.9333,Sandford Haven (Illangi)
147.5203,-42.9264,Sandford (Maydena)
147.9006,-42.6508,Sandspit River (Ringrove)
147.8675,-42.6831,Sandspit River (Wielangta Road)
147.9192,-40.0225,Sawyers Bay (Wickham)
148.1833,-41.4333,Scamander
148.3,-42.3,Schouten Island
147.5,-41.15,Scottsdale
146.8744,-41.4475,Selbourne (Kirnbrae)
146.6,-42.1,Serpentine
147.4953,-42.8586,Seven Mile Beach (Royal Hobart Golf Club
148.2833,-41.75,Seymour (Long Point)
146.8753,-42.2542,Shannon River (Hermitage)
147.0,-42.3,Shannon (Southern Field)
146.7,-42.7167,Sharpes Siding
146.3117,-41.3736,Sheffield (Avondale)
146.2667,-41.4333,Sheffield (Claude Road)
145.5281,-40.9892,Sisters Creek (Rulla)
145.0833,-40.8333,Smithton Aerodrome
145.1,-40.85,Smithton (Leesville)
145.1231,-40.8453,Smithton (Upper Havelock Street)
147.2236,-42.9397,Snake Plains
147.2611,-43.0678,Snug (Esplanade)
147.2019,-43.0914,Snug Plains (Cataract Falls)
147.2456,-43.0831,Snug (Powers Road)
147.2531,-43.0669,Snug Primary School
147.5594,-42.7975,Sorell (Abbatoirs)
147.5636,-42.7864,Sorell (Whitlea)
147.4167,-43.0167,South Arm
147.4167,-43.0225,South Arm (Half Moon Bay)
145.2161,-40.8842,South Forest (Plummers Road)
147.2953,-42.8994,South Hobart (Hillborough Road)
147.9583,-41.0228,South Mount Cameron (Gladstone Road)
146.0783,-41.4083,South Nietta
146.9725,-43.4225,Southport
146.9583,-43.4072,Southport (Huon Highway)
145.9639,-41.25,South Riana
145.9883,-41.2425,South Riana (Jansens Road)
147.5008,-41.2453,South Springfield
147.5,-41.2667,South Springfield (South Springfield For
146.1594,-41.2594,Sprent
147.49,-41.2142,Springfield
147.4711,-41.2356,Springfield (Ten Mile Track)
143.9667,-39.95,Spring Gully
145.2908,-40.7636,Stanley (Marine Esplanade)
145.2667,-40.8,Stanley (The Neck)
146.8831,-42.1592,Steppes (Christian Marsh)
146.8667,-42.05,Steppes (Forest Marsh)
146.8,-42.1,Steppes (Lagoon Of Islands)
146.8925,-42.105,Steppes (Old Post Office)
148.2672,-41.2842,St Helens (Glimpse Hill)
148.2381,-41.3161,St Helens (Kellraine)
148.3094,-41.3197,Stieglitz
148.3047,-41.3319,Stieglitz (Treatment Lagoons)
148.1833,-41.5797,St Marys (Cameron Street)
148.1825,-41.5817,St Marys (Clive Street)
148.1338,-41.5886,St Marys (Cullenswood)
148.1822,-41.5881,St Marys (Harefield Road)
148.2469,-41.5922,St Marys (Ponderosa)
147.6,-42.3833,Stonehenge
147.6936,-42.2683,Stonehouse
147.3908,-42.4031,Stonor
146.4203,-41.3936,Stoodley
147.355,-41.3303,St Patricks River (Targa Farm)
145.3358,-42.1556,Strahan (7 Vivian Street)
145.3172,-42.1522,Strahan (Andrew Street)
145.3167,-42.15,Strahan (Harvey Street)
145.3333,-42.15,Strahan (Union Steamship Company)
146.9047,-41.4883,Strathbridge (Meander River)
145.9825,-42.7411,Strathgordon (Gordon Power Station)
143.9217,-40.1192,Surprise Bay
146.0667,-42.2167,Surprise Valley
147.0192,-41.2858,Swan Bay
148.0683,-42.0694,Swansea (Belmont)
148.1708,-42.0883,Swansea (Dolphin Sands)
148.0442,-42.1994,Swansea (Kelvedon)
148.06,-42.0467,Swansea (The Grange)
148.3,-42.1,Swanwick
147.2646,-41.6365,Symmons Plains (South Esk River)
146.7319,-43.1003,Tahune Reserve
145.6167,-41.1833,Takone
147.8667,-43.0433,Taranna (Parks & Wildlife)
147.3967,-41.3108,Targa (Camden Road)
147.3803,-41.3144,Targa (Mountain Views)
147.3496,-42.9519,Taroona (Taroona Crescent)
146.3514,-42.3058,Tarraleah (No. 4 Bridge)
147.45,-41.3667,Tayene
147.3592,-42.6539,Tea Tree Point
147.4,-42.7,Tea Tree (Ring Farm)
147.3589,-42.6531,Tea Tree (The Point)
147.7672,-41.1219,Telita (Kanara Neika)
144.7394,-41.2194,Temma (Old Temma Farm)
144.7222,-41.1967,Temma (Temma Farm)
145.7206,-41.2181,Tewkesbury (1120 Oonah Road)
145.7133,-41.22,Tewkesbury (St Marys Plains)
147.0524,-41.9849,The Den
148.2767,-41.1617,The Gardens
147.9,-39.7667,The Hermatige
146.4675,-42.5425,The Settlement
144.84,-40.4472,Three Hummock Island
148.05,-40.1167,Thule
146.465,-42.7186,Tim Shea (Summit)
147.3075,-43.0344,Tinderbox (Tinderbox Road)
146.8003,-41.9664,Tods Corner
144.8858,-40.9506,Togari (Partridge Road)
144.8681,-40.9147,Togari (Renison Road)
147.7742,-40.9161,Tomahawk (Carisbrooke)
147.8278,-40.9486,Tomahawk (Wyambi)
147.5897,-41.1919,Tonganah (Clay Mine)
147.7831,-42.2133,Tooms Lake (Tooms River)
147.8667,-41.5333,Tower Hill
147.9092,-41.5811,Tower Hill (T1)
147.7047,-41.3189,Trenah (Gum Flat Road)
147.6989,-41.3175,Trenah (Wattle Banks)
147.9192,-42.5111,Triabunna (3 Boyle Street)
147.9347,-42.5436,Triabunna (Freestone Point)
147.8994,-42.5086,Triabunna (Salmons Flats)
145.1,-41.1,Trowutta
145.1089,-41.0436,Trowutta (Ringwood)
145.0667,-41.0597,Trowutta (Scotts Road)
147.4,-43.1667,Trumpeter Bay
147.6622,-41.1736,Tulendeena (Kapai Road)
145.6167,-41.7333,Tullah
145.6122,-41.7369,Tullah (Meredith Street)
145.6333,-41.7167,Tullah Mine Site
147.4,-42.1,Tunbridge
147.42,-42.1456,Tunbridge (Austin-Vale)
147.35,-42.1283,Tunbridge (Cheam)
147.3833,-42.1333,Tunbridge (Melrose)
147.4292,-42.1392,Tunbridge Post Office
147.4083,-42.4403,Tunnack (Blue Horizon)
147.4583,-42.4617,Tunnack Post Office
146.6703,-42.7253,Tyenna (Marriotts Falls Road)
146.6656,-42.7283,Tyenna (Tyenna Road)
146.1453,-41.1597,Ulverstone (Knights Road)
147.57,-41.4622,Upper Blessington
147.5756,-41.4592,Upper Blessington (Heathcote)
147.7364,-41.4425,Upper Esk (Gunns Road Jnctn)
147.7197,-41.4333,Upper Esk (Millybrook Lodge)
147.7192,-41.4342,Upper Esk (South Esk River)
145.9,-41.2333,Upper Natone
148.1936,-41.4397,Upper Scamander
148.2,-41.45,Upper Scamander
148.1,-41.3667,Urana
146.8667,-42.7667,Uxbridge
146.8803,-42.7561,Uxbridge (Peglers Corner)
147.1575,-43.2761,Verona Sands
147.3017,-42.0531,Verwood
147.286,-42.0572,Verwood (Isis River)
146.7092,-42.2564,Victoria Valley (Glenrowan)
147.2,-41.85,Viewpoint
146.7483,-42.1267,Waddamana Field Study Centre
147.5922,-40.9431,Waterhouse(Barooga)
147.6,-40.8,Waterhouse Island
146.9869,-43.1833,Wattle Grove
147.6222,-42.7611,Wattle Hill
146.5317,-42.4292,Wayatinah Power Station
146.4897,-42.3961,Wayatinah (Saltas)
146.4833,-42.3833,Wayatinah (Village)
147.46,-41.2517,Weelaty
146.6456,-41.4717,Weetah (Weetah Road)
147.9028,-41.1836,Weldborough
146.8303,-41.5128,Westbury (Birralee Road)
146.8125,-41.5239,Westbury (Valley View)
146.5244,-41.6419,Western Creek (Somer Hill)
146.7778,-42.6794,Westerway (Leesons Road)
145.5794,-42.0622,West Lyell
147.1393,-41.7206,Westmoore
146.0083,-41.1142,West Pine
145.5,-41.2,West Takone
147.0339,-41.5206,Westwood Bridge (Meander River)
147.15,-41.0167,Weymouth
147.1053,-41.0161,Weymouth (Tam O'Shanter)
148.0167,-40.1167,Whitemark
145.5,-41.8167,Williamsford
145.5167,-41.8333,Williamsford (Level 5)
146.1739,-41.3567,Wilmot (Back Road)
146.0,-41.55,Wilmot (Middlesex Plains)
147.0281,-41.3128,Windermere (Acacia House)
148.0167,-39.8489,Wingaroo
147.9433,-39.9211,Wingaroo (Markarna Park)
147.8333,-41.1,Winnaleah
147.8,-41.0167,Winnaleah (Banca)
147.2386,-43.1547,Woodbridge
147.2333,-43.1667,Woodbridge No 2
147.3833,-42.1833,Woodbury (Lowes Park)
147.4778,-42.1933,Woodbury (The Braes)
147.3881,-42.1758,Woodbury (Warringa)
147.3236,-42.1622,Woodbury (Warringa Old Tier Road)
147.4436,-41.2431,Woodlea Nursery
147.6164,-42.4628,Woodsdale
147.6072,-42.4783,Woodsdale (Stalworth)
147.1,-41.9833,Woods (Den)
147.1,-42.3,Woods (Quoin)
147.2,-41.7,Woolmers Settlement
147.1406,-41.7239,Woolmoor (Macquarie River)
145.7,-41.0,Wynyard Post Office
143.9331,-39.7058,Yambacoona
147.3133,-42.535,Yarlington (Blacks Pinnacle)
144.0788,-39.9633,Yarra Creek
145.7058,-41.1428,Yolla (Sea View)
147.5347,-42.265,York Plains (Handroyd)
147.4336,-42.2597,York Plains (Inverell)
147.465,-42.2681,York Plains (Wyndham)
